"stop_id","stop_lat","stop_long","stop_name","stop_suburb","stop_type"
"B-1    ",-37.70077481,145.0189511,"Dole Ave/Cheddar Rd                                                   ","Reservoir                                         ","B   "
"B-10   ",-37.67530436,144.5887764,"Raleighs Rd/Centenary Ave                                             ","Melton                                            ","B   "
"B-100  ",-37.97603147,145.0211016,"Cullinane St/Balcombe Rd                                              ","Black Rock                                        ","B   "
"B-1000 ",-38.14170177,145.1575054,"Lindrum Rd/Karingal Dr                                                ","Frankston                                         ","B   "
"B-10000",-38.07127822,145.467659,"Funston Ct/Duncan Dr                                                  ","Pakenham                                          ","B   "
"B-10001",-38.06916799,145.4668595,"Dobson Ct/Duncan Dr                                                   ","Pakenham                                          ","B   "
"B-10002",-38.06683996,145.4666345,"Princes Hwy/Duncan Dr                                                 ","Pakenham                                          ","B   "
"B-10003",-38.06490404,145.4646915,"Rundell Way/Princes Hwy                                               ","Pakenham                                          ","B   "
"B-10004",-38.06363083,145.461743,"Warwick Bayley Oval/Princes Hwy                                       ","Pakenham                                          ","B   "
"B-10005",-37.80481543,144.9691062,"Exhibition Building/Rathdowne St                                      ","Carlton                                           ","B   "
"B-10006",-38.063242,145.4363778,"Cardinia Rd/Princes Hwy                                               ","Pakenham                                          ","B   "
"B-10007",-38.06263872,145.4189053,"McMullen Rd/Princes Hwy                                               ","Officer                                           ","B   "
"B-10008",-38.06116161,145.4142866,"Officer Recreation Reserve/Princes Hwy                                ","Officer                                           ","B   "
"B-10009",-38.05998875,145.4081911,"Station St/Princes Hwy                                                ","Officer                                           ","B   "
"B-1001 ",-38.14072961,145.1558526,"Devon Ct/Karingal Dr                                                  ","Frankston                                         ","B   "
"B-10010",-38.05954003,145.4056705,"Bayview Rd/Princes Hwy                                                ","Officer                                           ","B   "
"B-10011",-38.0567554,145.3904695,"Brunt Rd/Princes Hwy                                                  ","Officer                                           ","B   "
"B-10012",-38.05417658,145.37922,"O'Neil Rd/Princes Hwy                                                 ","Beaconsfield                                      ","B   "
"B-10013",-37.80229978,144.9695499,"Melbourne Museum/Rathdowne St                                         ","Carlton                                           ","B   "
"B-10014",-38.0426943,145.3648302,"Haileybury College/Princes Hwy                                        ","Berwick                                           ","B   "
"B-10015",-38.04052325,145.3616537,"Cardinia St/Princes Hwy                                               ","Berwick                                           ","B   "
"B-10016",-38.03931413,145.3596068,"Bryn Mawr Bvd/Princes Hwy                                             ","Berwick                                           ","B   "
"B-10017",-38.03542963,145.3537799,"Edrington Park Retirement Village/Princes Hwy                         ","Berwick                                           ","B   "
"B-10018",-38.03213684,145.348396,"Rutland Rd/Princes Hwy                                                ","Berwick                                           ","B   "
"B-10019",-38.03130011,145.345931,"Berwick Shopping Centre/High St                                       ","Berwick                                           ","B   "
"B-1002 ",-38.13884379,145.1522603,"Flam St/Ashleigh Ave                                                  ","Frankston                                         ","B   "
"B-10020",-38.03100249,145.3401612,"York Rd/Princes Hwy                                                   ","Berwick                                           ","B   "
"B-10021",-38.03006691,145.3351806,"Wilson Botanic Park/Princes Hwy                                       ","Berwick                                           ","B   "
"B-10022",-37.80069174,144.9698438,"Grattan St/Rathdowne St                                               ","Carlton                                           ","B   "
"B-10023",-38.02963491,145.3314078,"William Rd/Princes Hwy                                                ","Berwick                                           ","B   "
"B-10024",-37.93109847,145.0178357,"Ivy St/South Rd                                                       ","Brighton East                                     ","B   "
"B-10025",-37.93374978,145.0399971,"Redholme St/South Rd                                                  ","Moorabbin                                         ","B   "
"B-10026",-37.98002035,145.0538406,"Mentone Girls Secondary College/Balcombe Rd                           ","Mentone                                           ","B   "
"B-10027",-37.98955805,145.1318266,"Braeside Park/Lower Dandenong Rd                                      ","Dingley Village                                   ","B   "
"B-10028",-37.99301322,145.1617901,"Chapel Rd/Cheltenham Rd                                               ","Keysborough                                       ","B   "
"B-10029",-37.98725032,145.1695971,"Turramurra Dr/Kingsclere Ave                                          ","Keysborough                                       ","B   "
"B-1003 ",-38.13976619,145.1484603,"Golconda Ave/Ashleigh Ave                                             ","Frankston                                         ","B   "
"B-10030",-37.9811691,145.1772512,"Ainsley Ave/Bloomfield Rd                                             ","Noble Park                                        ","B   "
"B-10031",-37.97434159,145.186801,"Chandler Rd/Railway Pde                                               ","Noble Park                                        ","B   "
"B-10032",-37.79776233,144.9703329,"Elgin St/Rathdowne St                                                 ","Carlton                                           ","B   "
"B-10033",-37.9096989,144.9967423,"Boxshall St/St Andrews St                                             ","Brighton                                          ","B   "
"B-10034",-37.91200385,144.9934494,"Church St/St Andrews St                                               ","Brighton                                          ","B   "
"B-10035",-37.92010641,145.0014539,"Dendy St/Church St                                                    ","Brighton                                          ","B   "
"B-10036",-37.92180081,145.0030576,"Peacock St/Roslyn St                                                  ","Brighton                                          ","B   "
"B-10037",-37.92584358,145.0023225,"Were St/Roslyn St                                                     ","Brighton                                          ","B   "
"B-10038",-37.92861859,145.0017581,"South Rd/Roslyn St                                                    ","Brighton                                          ","B   "
"B-10039",-37.92931694,145.0046746,"Hampton St/South Rd                                                   ","Brighton                                          ","B   "
"B-1004 ",-37.86002805,144.9825954,"Princes St/Barkly St                                                  ","St Kilda                                          ","B   "
"B-10040",-37.92957303,145.0070227,"St Leonards College/South Rd                                          ","Brighton East                                     ","B   "
"B-10041",-37.92987757,145.0095744,"Canberra Gr/South Rd                                                  ","Brighton East                                     ","B   "
"B-10042",-37.79497684,144.9708066,"Kay St/Rathdowne St                                                   ","Carlton                                           ","B   "
"B-10043",-37.93014218,145.0118997,"Comer St/South Rd                                                     ","Brighton East                                     ","B   "
"B-10044",-37.93049436,145.0151441,"Prince St/South Rd                                                    ","Brighton East                                     ","B   "
"B-10045",-37.93083801,145.0178882,"Ivy St/South Rd                                                       ","Brighton East                                     ","B   "
"B-10046",-37.93130021,145.0217897,"Letchworth Ave/South Rd                                               ","Brighton East                                     ","B   "
"B-10047",-37.93165714,145.0242605,"Studley Rd/South Rd                                                   ","Brighton East                                     ","B   "
"B-10048",-37.93191112,145.0265064,"Cummins Rd/South Rd                                                   ","Brighton East                                     ","B   "
"B-10049",-37.93212451,145.0279457,"Gleniffer Ave/South Rd                                                ","Brighton East                                     ","B   "
"B-1005 ",-38.14334204,145.1454944,"Coral St/Ashleigh Ave                                                 ","Frankston                                         ","B   "
"B-10050",-37.93398617,145.0433701,"Moorabbin Bowls Club/South Rd                                         ","Bentleigh                                         ","B   "
"B-10051",-37.74421255,145.0584791,"Invermay Gr/Waiora Rd                                                 ","Rosanna                                           ","B   "
"B-10052",-37.7929374,144.971169,"Princes St/Rathdowne St                                               ","Carlton                                           ","B   "
"B-10053",-37.93428319,145.0460588,"Sandra Gr/South Rd                                                    ","Bentleigh                                         ","B   "
"B-10054",-37.93583751,145.0490329,"Deal Cl/Chapel Rd                                                     ","Moorabbin                                         ","B   "
"B-10055",-37.93806559,145.0486212,"Herne Cl/Chapel Rd                                                    ","Moorabbin                                         ","B   "
"B-10056",-37.94084987,145.0480583,"Avon St/Chapel Rd                                                     ","Moorabbin                                         ","B   "
"B-10057",-37.94297457,145.0479338,"Rhonda Ct/Chapel Rd                                                   ","Moorabbin                                         ","B   "
"B-10058",-37.94517542,145.0475114,"Wickham Rd/Chapel Rd                                                  ","Moorabbin                                         ","B   "
"B-10059",-37.94596944,145.0497436,"Walsh Ave/Wickham Rd                                                  ","Moorabbin                                         ","B   "
"B-1006 ",-38.14570914,145.1447383,"Frankston East PS/Ashleigh Ave                                        ","Frankston                                         ","B   "
"B-10060",-37.94623814,145.051819,"Rowans Rd/Wickham Rd                                                  ","Moorabbin                                         ","B   "
"B-10061",-37.94669265,145.0553234,"Commercial Rd/Wickham Rd                                              ","Moorabbin                                         ","B   "
"B-10062",-37.94850104,145.058963,"Keys Rd/Chesterville Rd                                               ","Cheltenham                                        ","B   "
"B-10063",-37.79128412,144.9714527,"Lee St/Rathdowne St                                                   ","Carlton North                                     ","B   "
"B-10064",-37.95029715,145.0585857,"Waves Leisure Centre/148 Chesterville Rd                              ","Cheltenham                                        ","B   "
"B-10065",-37.95316256,145.0580208,"Bernard St/Chesterville Rd                                            ","Cheltenham                                        ","B   "
"B-10066",-37.95575923,145.0575541,"Keamy Ave/Chesterville Rd                                             ","Cheltenham                                        ","B   "
"B-10067",-37.96495068,145.055889,"Cheltenham Youth Club/Charman Rd                                      ","Cheltenham                                        ","B   "
"B-10068",-37.96822929,145.0552448,"Cheltenham Railway Station/Charman Rd                                 ","Cheltenham                                        ","B   "
"B-10069",-37.97177775,145.0545706,"Sydney St/Charman Rd                                                  ","Cheltenham                                        ","B   "
"B-1007 ",-38.14708896,145.1430944,"Ashleigh Ave/Beach St                                                 ","Frankston                                         ","B   "
"B-10070",-37.97387953,145.0541508,"Latrobe St/Charman Rd                                                 ","Cheltenham                                        ","B   "
"B-10071",-37.97649475,145.0537174,"Patty St/Charman Rd                                                   ","Beaumaris                                         ","B   "
"B-10072",-37.78916361,144.9718173,"Newry St/Rathdowne St                                                 ","Carlton North                                     ","B   "
"B-10073",-37.97983869,145.0537543,"Mentone Girls Secondary College/Balcombe Rd                           ","Mentone                                           ","B   "
"B-10074",-37.98033673,145.0577146,"Mundy St/Balcombe Rd                                                  ","Mentone                                           ","B   "
"B-10075",-37.98067926,145.0604494,"Opp 127 Balcombe Rd                                                   ","Mentone                                           ","B   "
"B-10076",-37.98420362,145.0665163,"Kilbreda College/Como Pde                                             ","Mentone                                           ","B   "
"B-10077",-37.98604975,145.0680847,"St Augustines Anglican Church/Como Pde                                ","Mentone                                           ","B   "
"B-10078",-37.98767254,145.0697729,"Mentone Grammar School/Como Pde                                       ","Mentone                                           ","B   "
"B-10079",-37.98560501,145.0706354,"Stawell St/Warrigal Rd                                                ","Mentone                                           ","B   "
"B-1008 ",-38.1458665,145.1404438,"Kelman St/Beach St                                                    ","Frankston                                         ","B   "
"B-10080",-37.9835208,145.0710316,"St Patricks Primary School/Warrigal Rd                                ","Mentone                                           ","B   "
"B-10081",-37.98261545,145.0768278,"Thrift Park Shopping Centre/Lower Dandenong Rd                        ","Mentone                                           ","B   "
"B-10082",-37.7878156,144.9720359,"Fenwick St/Rathdowne St                                               ","Carlton North                                     ","B   "
"B-10083",-37.98096381,145.1652105,"Kingsclere Ave/Corrigan Rd                                            ","Keysborough                                       ","B   "
"B-10084",-37.9833719,145.0828653,"Glenelg Dr/Lower Dandenong Rd                                         ","Mentone                                           ","B   "
"B-10085",-37.98374076,145.0861462,"Ivy St/Lower Dandenong Rd                                             ","Mentone                                           ","B   "
"B-10086",-37.9841152,145.089222,"Allandale Rd/Lower Dandenong Rd                                       ","Mentone                                           ","B   "
"B-10087",-37.98458024,145.0928876,"Bundora Pde/Lower Dandenong Rd                                        ","Mentone                                           ","B   "
"B-10088",-37.98499462,145.0967709,"Duigan Dr/Lower Dandenong Rd                                          ","Moorabbin Airport                                 ","B   "
"B-10089",-37.98534966,145.0992211,"De Havilland Rd/Lower Dandenong Rd                                    ","Moorabbin Airport                                 ","B   "
"B-1009 ",-38.14477389,145.1380296,"Franklin Ct/Beach St                                                  ","Frankston                                         ","B   "
"B-10090",-37.98589784,145.1035906,"Sibthorpe St/Lower Dandenong Rd                                       ","Moorabbin Airport                                 ","B   "
"B-10091",-37.98634552,145.1073252,"Boundary Rd/Lower Dandenong Rd                                        ","Moorabbin Airport                                 ","B   "
"B-10092",-37.98687648,145.1117636,"Boundary Rd/Lower Dandenong Rd                                        ","Moorabbin Airport                                 ","B   "
"B-10093",-37.78485014,144.9725257,"Richardson St/Rathdowne St                                            ","Carlton North                                     ","B   "
"B-10094",-37.98724789,145.1146918,"Redwood Dr/Lower Dandenong Rd                                         ","Dingley Village                                   ","B   "
"B-10095",-37.98726107,145.1166385,"Woodlands Dr/Lower Dandenong Rd                                       ","Dingley Village                                   ","B   "
"B-10096",-37.98803653,145.1211733,"Howard Rd/Lower Dandenong Rd                                          ","Dingley Village                                   ","B   "
"B-10097",-37.98859763,145.1258388,"Sandleford Pl/Lower Dandenong Rd                                      ","Dingley Village                                   ","B   "
"B-10098",-37.98896059,145.1288243,"St Marks School/Lower Dandenong Rd                                    ","Dingley Village                                   ","B   "
"B-10099",-37.98934149,145.1318093,"Cassava Ct/Lower Dandenong Rd                                         ","Dingley Village                                   ","B   "
"B-101  ",-37.97638519,145.0239154,"Hunter Ave/Balcombe Rd                                                ","Black Rock                                        ","B   "
"B-1010 ",-38.14353755,145.1345123,"James St/Beach St                                                     ","Frankston                                         ","B   "
"B-10100",-37.98971891,145.1351475,"593 Lower Dandenong Rd                                                ","Dingley Village                                   ","B   "
"B-10101",-37.99008596,145.1384062,"Greenwood Village Mews/Lower Dandenong Rd                             ","Dingley Village                                   ","B   "
"B-10102",-37.991665,145.1528166,"Fiveways Bvd/Cheltenham Rd                                            ","Keysborough                                       ","B   "
"B-10103",-37.7823609,144.9729344,"Pigdon St/Rathdowne St                                                ","Carlton North                                     ","B   "
"B-10104",-37.98097508,145.1670888,"Yagoona Ave/Kingsclere Ave                                            ","Keysborough                                       ","B   "
"B-10105",-37.99242374,145.1586733,"Beauvorno Ave/Cheltenham Rd                                           ","Keysborough                                       ","B   "
"B-10106",-37.87946351,145.0749662,"The Rialto/Waverley Rd                                                ","Malvern East                                      ","B   "
"B-10107",-37.99199702,145.1630795,"Cheltenham Rd/Corrigan Rd                                             ","Keysborough                                       ","B   "
"B-10108",-37.989562,145.1635387,"Resurrection Church/Corrigan Rd                                       ","Keysborough                                       ","B   "
"B-10109",-37.98699238,145.1640355,"Putt Gr/Corrigan Rd                                                   ","Keysborough                                       ","B   "
"B-1011 ",-38.1428471,145.1318941,"Rex St/Beach St                                                       ","Frankston                                         ","B   "
"B-10110",-37.98489967,145.1644862,"Darren Rd/Corrigan Rd                                                 ","Keysborough                                       ","B   "
"B-10111",-37.98308426,145.1648047,"Trevor Ct/Corrigan Rd                                                 ","Keysborough                                       ","B   "
"B-10112",-36.80786589,144.2408804,"Laxdale Ct/High St                                                    ","Kangaroo Flat                                     ","B   "
"B-10113",-36.8099852,144.2417233,"Lansell Plaza SC/High St                                              ","Kangaroo Flat                                     ","B   "
"B-10114",-37.77988948,144.9733312,"Park St/Rathdowne St                                                  ","Carlton North                                     ","B   "
"B-10115",-36.79507457,144.2442193,"Station St/High St                                                    ","Kangaroo Flat                                     ","B   "
"B-10116",-36.79394185,144.2443383,"Station St/High St                                                    ","Kangaroo Flat                                     ","B   "
"B-10117",-36.79211831,144.244202,"Lansell St/High St                                                    ","Kangaroo Flat                                     ","B   "
"B-10118",-36.79077026,144.2443624,"Cooks Reserve/High St                                                 ","Kangaroo Flat                                     ","B   "
"B-10119",-36.78859649,144.2450565,"Rotary Park/High St                                                   ","Kangaroo Flat                                     ","B   "
"B-1012 ",-38.14204285,145.128925,"Chisholm Institute Of TAFE/Beach St                                   ","Frankston                                         ","B   "
"B-10120",-36.7859394,144.2462833,"Lindsay St/High St                                                    ","Kangaroo Flat                                     ","B   "
"B-10121",-37.98900891,145.1702593,"Balgowlah Ave/Kingsclere Ave                                          ","Keysborough                                       ","B   "
"B-10122",-36.78360257,144.2473305,"Mimosa St/High St                                                     ","Golden Square                                     ","B   "
"B-10123",-36.78143072,144.2488871,"Elm St/High St                                                        ","Golden Square                                     ","B   "
"B-10124",-36.78043803,144.249606,"Oak St/High St                                                        ","Golden Square                                     ","B   "
"B-10125",-36.77836343,144.2514726,"Poplar St/High St                                                     ","Golden Square                                     ","B   "
"B-10126",-36.776623,144.253372,"Bay St/High St                                                        ","Golden Square                                     ","B   "
"B-10127",-36.77510376,144.2550954,"Fir St/High St                                                        ","Golden Square                                     ","B   "
"B-10128",-36.77397604,144.2566031,"Beech St/High St                                                      ","Golden Square                                     ","B   "
"B-10129",-36.77176917,144.2597736,"Maple St/High St                                                      ","Golden Square                                     ","B   "
"B-1013 ",-38.13666374,145.1540267,"Skye Rd/Karingal Dr                                                   ","Frankston                                         ","B   "
"B-10130",-36.77032475,144.2627935,"Booth St/High St                                                      ","Golden Square                                     ","B   "
"B-10131",-36.76877243,144.2646521,"Dick Turner Park/High St                                              ","Golden Square                                     ","B   "
"B-10132",-36.76760701,144.2657017,"Shamrock St/High St                                                   ","Golden Square                                     ","B   "
"B-10133",-36.76567594,144.2679433,"Honeysuckle St/High St                                                ","Bendigo                                           ","B   "
"B-10134",-37.99184276,145.1745844,"Parkmore Shopping Centre/Kingsclere Ave                               ","Keysborough                                       ","B   "
"B-10135",-36.76463783,144.2694362,"Violet St/High St                                                     ","Bendigo                                           ","B   "
"B-10136",-36.76760831,144.2661497,"Christian Church/High St                                              ","Bendigo                                           ","B   "
"B-10137",-36.76927334,144.2644887,"Shamrock St/High St                                                   ","Golden Square                                     ","B   "
"B-10138",-36.77053366,144.2628644,"Booth St/High St                                                      ","Golden Square                                     ","B   "
"B-10139",-36.77140496,144.2611756,"Methodist Sunday School/High St                                       ","Golden Square                                     ","B   "
"B-1014 ",-37.85772519,144.9833629,"St Kilda Junction/Barkly St                                           ","St Kilda                                          ","B   "
"B-10140",-36.77343407,144.2577203,"Beech St/High St                                                      ","Golden Square                                     ","B   "
"B-10141",-36.77499062,144.2556596,"Fir St/High St                                                        ","Golden Square                                     ","B   "
"B-10142",-36.77644709,144.2539496,"Bay St/High St                                                        ","Golden Square                                     ","B   "
"B-10143",-36.77804632,144.2521785,"Poplar St/High St                                                     ","Golden Square                                     ","B   "
"B-10144",-37.99072803,145.1753408,"Kingslere Ave/Bloomfield Rd                                           ","Keysborough                                       ","B   "
"B-10145",-36.78015306,144.2501427,"Oak St/High St                                                        ","Golden Square                                     ","B   "
"B-10146",-36.78215489,144.2486371,"Elm St/High St                                                        ","Golden Square                                     ","B   "
"B-10147",-36.78381434,144.2475246,"Mimosa St/High St                                                     ","Golden Square                                     ","B   "
"B-10148",-36.78602641,144.2465379,"Lindsay St/High St                                                    ","Kangaroo Flat                                     ","B   "
"B-10149",-36.78893406,144.2452349,"Wireless St/High St                                                   ","Kangaroo Flat                                     ","B   "
"B-1015 ",-37.93419956,145.1048404,"Bald Hill Park/opp 72 Bunney Rd                                       ","Clarinda                                          ","B   "
"B-10150",-36.79107259,144.2445756,"Guthrie St/High St                                                    ","Kangaroo Flat                                     ","B   "
"B-10151",-36.7922964,144.2444982,"Lions Park/High St                                                    ","Kangaroo Flat                                     ","B   "
"B-10152",-36.79506331,144.244511,"Station St/High St                                                    ","Kangaroo Flat                                     ","B   "
"B-10153",-36.79730426,144.2439937,"Camp St/High St                                                       ","Kangaroo Flat                                     ","B   "
"B-10154",-36.79837083,144.2437425,"View St/High St                                                       ","Kangaroo Flat                                     ","B   "
"B-10155",-37.98899436,145.1757026,"Beverely Pl/Bloomfield Rd                                             ","Keysborough                                       ","B   "
"B-10156",-36.80128008,144.2428986,"Bank St/High St                                                       ","Kangaroo Flat                                     ","B   "
"B-10157",-36.80420837,144.2420987,"Crusoe Rd/High St                                                     ","Kangaroo Flat                                     ","B   "
"B-10158",-36.80636826,144.2415841,"Phillips Dr/High St                                                   ","Kangaroo Flat                                     ","B   "
"B-10159",-36.81421436,144.2395091,"Jacks Ave/High St                                                     ","Kangaroo Flat                                     ","B   "
"B-1016 ",-38.15853792,145.1303067,"Murawa St/Foot St                                                     ","Frankston                                         ","B   "
"B-10160",-36.81792907,144.2333903,"Hammil St/Furness St                                                  ","Kangaroo Flat                                     ","B   "
"B-10161",-36.81290174,144.2338291,"Lowe St/Crusoe Rd                                                     ","Kangaroo Flat                                     ","B   "
"B-10162",-36.80902069,144.2366698,"Pittaway St/Crusoe Rd                                                 ","Kangaroo Flat                                     ","B   "
"B-10163",-36.79405354,144.2378914,"Hope St/Olympic Pde                                                   ","Kangaroo Flat                                     ","B   "
"B-10164",-36.79127762,144.2359407,"Crusoe College/Olympic Pde                                            ","Kangaroo Flat                                     ","B   "
"B-10165",-36.78816959,144.2410271,"Browning St/MacKenzie St West                                         ","Kangaroo Flat                                     ","B   "
"B-10166",-37.98666686,145.1761246,"Frederick Wachter Reserve/Bloomfield Rd                               ","Keysborough                                       ","B   "
"B-10167",-36.78612536,144.2422544,"Alder St/MacKenzie St West                                            ","Golden Square                                     ","B   "
"B-10168",-37.98397901,145.1765555,"Isaac Rd/Bloomfield Rd                                                ","Keysborough                                       ","B   "
"B-10169",-36.75896291,144.2527255,"Maple St/Marong Rd                                                    ","West Bendigo                                      ","B   "
"B-1017 ",-37.87821259,145.0352625,"Payne St/Kambrook Rd                                                  ","Caulfield North                                   ","B   "
"B-10170",-36.75742836,144.2592537,"Victoria Hill Historic Mining Site/Marong Rd                          ","Ironbark                                          ","B   "
"B-10171",-36.76068046,144.2635061,"St John of God Hospital/Barnard St                                    ","Ironbark                                          ","B   "
"B-10172",-36.75920376,144.2663026,"Old Violet St/Barnard St                                              ","Ironbark                                          ","B   "
"B-10173",-37.98091627,145.179546,"Conley St/Nance St                                                    ","Noble Park                                        ","B   "
"B-10174",-36.7594034,144.2663627,"Old Violet St/Barnard St                                              ","Bendigo                                           ","B   "
"B-10175",-36.75911267,144.2529665,"Maple St/Marong Rd                                                    ","Golden Square                                     ","B   "
"B-10176",-37.98037703,145.1825537,"15 Stackpoole St                                                      ","Noble Park                                        ","B   "
"B-10177",-37.77870387,144.9756571,"Truscott St/Brunswick Rd                                              ","Brunswick East                                    ","B   "
"B-10178",-37.78052886,145.1234195,"Manningham Rd/Williamsons Rd                                          ","Doncaster                                         ","B   "
"B-10179",-36.78623627,144.2423737,"John St/MacKenzie St West                                             ","Kangaroo Flat                                     ","B   "
"B-1018 ",-38.16078454,145.1293477,"Towerhill Rd/Foot St                                                  ","Frankston South                                   ","B   "
"B-10180",-36.78787176,144.2413963,"Browning St/MacKenzie St West                                         ","Kangaroo Flat                                     ","B   "
"B-10181",-36.79123677,144.2361214,"Crusoe College/Olympic Pde                                            ","Kangaroo Flat                                     ","B   "
"B-10182",-36.79434255,144.2383068,"Station St/Olympic Pde                                                ","Kangaroo Flat                                     ","B   "
"B-10183",-37.78822021,144.8284362,"Graham St/Durham Rd                                                   ","Sunshine                                          ","B   "
"B-10184",-36.78619327,144.2323813,"Aspinall St/Olympic Pde                                               ","Kangaroo Flat                                     ","B   "
"B-10185",-36.78071534,144.2413505,"Norma St/Aspinall St                                                  ","Golden Square                                     ","B   "
"B-10186",-36.77928539,144.2422532,"Druid St/Aspinall St                                                  ","Golden Square                                     ","B   "
"B-10187",-36.77528666,144.2446931,"Allpress Dr/Aspinall St                                               ","Golden Square                                     ","B   "
"B-10188",-36.7738914,144.2455384,"Tomkinson Dr/Aspinall St                                              ","Golden Square                                     ","B   "
"B-10189",-36.77314989,144.2481526,"Kirby St/Symonds St                                                   ","Golden Square                                     ","B   "
"B-1019 ",-38.16452878,145.138132,"Frankston-Flinders Rd/Golf Links Rd                                   ","Frankston South                                   ","B   "
"B-10190",-36.7732345,144.2479143,"Kirby St/Symonds St                                                   ","Golden Square                                     ","B   "
"B-10191",-36.77388577,144.2456842,"Bissell Dr/Aspinall St                                                ","Golden Square                                     ","B   "
"B-10192",-36.77543203,144.2447439,"Allpress Dr/Aspinall St                                               ","Golden Square                                     ","B   "
"B-10193",-36.779315,144.2423642,"Druid St/Aspinall St                                                  ","Golden Square                                     ","B   "
"B-10194",-36.78126997,144.2411738,"Norma St/Aspinall St                                                  ","Golden Square                                     ","B   "
"B-10195",-36.76032351,144.2793671,"Mitchell St Central - Bay A/Mitchell St                               ","Bendigo                                           ","B   "
"B-10196",-36.75148683,144.1988121,"Rathbones Lane/Monsants Rd                                            ","Maiden Gully                                      ","B   "
"B-10197",-36.76536949,144.2880152,"Brougham St/Williamson St                                             ","Bendigo                                           ","B   "
"B-10198",-37.89816088,145.0098378,"Magnolia Rd/Gardenvale Rd                                             ","Gardenvale                                        ","B   "
"B-10199",-36.76757002,144.290458,"Havlin St/Williamson St                                               ","Kennington                                        ","B   "
"B-102  ",-37.97668155,145.0265373,"Summerhill Rd/Balcombe Rd                                             ","Beaumaris                                         ","B   "
"B-1020 ",-37.85328189,144.983859,"Union St/Punt Rd                                                      ","Windsor                                           ","B   "
"B-10200",-36.76856905,144.2915877,"Shipp St/Williamson St                                                ","Kennington                                        ","B   "
"B-10201",-36.78286065,144.2887654,"La Trobe University/Retreat Rd                                        ","Flora Hill                                        ","B   "
"B-10202",-36.78562584,144.2887015,"Cook St/Retreat Rd                                                    ","Spring Gully                                      ","B   "
"B-10203",-36.78871143,144.2880661,"Stanley Ave/Retreat Rd                                                ","Spring Gully                                      ","B   "
"B-10204",-36.79273497,144.287857,"Kristy Dr/Retreat Rd                                                  ","Spring Gully                                      ","B   "
"B-10205",-37.77905297,144.9786677,"Nicholson St/Holden St                                                ","Fitzroy North                                     ","B   "
"B-10206",-36.79498612,144.2877775,"174 Retreat Rd                                                        ","Spring Gully                                      ","B   "
"B-10207",-36.79787635,144.2876644,"Joachim Lane/Retreat Rd                                               ","Spring Gully                                      ","B   "
"B-10208",-36.79943977,144.2878557,"Wattle Dr/Mandurang Rd                                                ","Spring Gully                                      ","B   "
"B-10209",-36.80218209,144.2891598,"Bendigo Ret Village/Mandurang Rd                                      ","Spring Gully                                      ","B   "
"B-1021 ",-38.16239272,145.1330046,"Helvetia Ct/Towerhill Rd                                              ","Frankston South                                   ","B   "
"B-10210",-36.80273664,144.2913479,"Bendigo Ret Village/Francis St                                        ","Spring Gully                                      ","B   "
"B-10211",-36.80159535,144.291489,"Bendigo Ret Village/Broad Pde                                         ","Spring Gully                                      ","B   "
"B-10212",-36.80051828,144.2893081,"Mandurang Rd/Francliff Ave                                            ","Spring Gully                                      ","B   "
"B-10213",-36.7995445,144.2877064,"Wattle Dr/Mandurang Rd                                                ","Spring Gully                                      ","B   "
"B-10214",-36.78563977,144.2885218,"Cook St/Retreat Rd                                                    ","Flora Hill                                        ","B   "
"B-10215",-36.77321102,144.2904385,"Ellis St/Somerville St                                                ","Flora Hill                                        ","B   "
"B-10216",-36.76979802,144.2917349,"Miller St/Somerville St                                               ","Flora Hill                                        ","B   "
"B-10217",-36.76744403,144.2900703,"Havlin St/Williamson St                                               ","Kennington                                        ","B   "
"B-10218",-36.76454924,144.2868232,"Hopper St/Williamson St                                               ","Bendigo                                           ","B   "
"B-10219",-36.76194866,144.2838347,"Mollison St/Williamson St                                             ","Bendigo                                           ","B   "
"B-1022 ",-38.15279457,145.132382,"Moorooduc Hwy/Hastings Rd                                             ","Frankston                                         ","B   "
"B-10220",-36.76086246,144.2796841,"Mitchell St Central - Bay B/Mitchell St                               ","Bendigo                                           ","B   "
"B-10221",-36.76392406,144.2835186,"McLaren St/Mitchell St                                                ","Bendigo                                           ","B   "
"B-10222",-36.7654336,144.284507,"Galvin St/Mitchell St                                                 ","Bendigo                                           ","B   "
"B-10223",-36.76699282,144.2853033,"Palmerston St/Mitchell St                                             ","Bendigo                                           ","B   "
"B-10224",-36.76862433,144.2861082,"Miller St/Mitchell St                                                 ","Bendigo                                           ","B   "
"B-10225",-36.77180143,144.285929,"Rodney St/Carpenter St                                                ","Quarry Hill                                       ","B   "
"B-10226",-36.77339116,144.2856937,"Hallam St/Carpenter St                                                ","Quarry Hill                                       ","B   "
"B-10227",-36.77602262,144.2852983,"Houston St/Carpenter St                                               ","Quarry Hill                                       ","B   "
"B-10228",-36.77889643,144.2848608,"Bendigo Cemetery/Carpenter St                                         ","Quarry Hill                                       ","B   "
"B-10229",-36.79612469,144.2851489,"Burns St/Spring Gully Rd                                              ","Spring Gully                                      ","B   "
"B-1023 ",-38.15434483,145.1341,"Millard St/Moorooduc Hwy                                              ","Frankston                                         ","B   "
"B-10230",-36.79090494,144.2846721,"Autumn Gully Rd/Spring Gully Rd                                       ","Spring Gully                                      ","B   "
"B-10231",-36.78772969,144.2845378,"Stanley Ave/Spring Gully Rd                                           ","Spring Gully                                      ","B   "
"B-10232",-36.78539438,144.2848779,"Whittaker St/Spring Gully Rd                                          ","Spring Gully                                      ","B   "
"B-10233",-36.78267314,144.2852877,"Spring St/Spring Gully Rd                                             ","Quarry Hill                                       ","B   "
"B-10234",-36.77856791,144.284682,"Bendigo Cemetery/Carpenter St                                         ","Quarry Hill                                       ","B   "
"B-10235",-36.77683411,144.2849224,"Bendigo Cemetery North/Carpenter St                                   ","Quarry Hill                                       ","B   "
"B-10236",-36.773879,144.2853516,"Hallam St/Carpenter St                                                ","Quarry Hill                                       ","B   "
"B-10237",-36.7720199,144.28563,"Rodney St/Carpenter St                                                ","Quarry Hill                                       ","B   "
"B-10238",-36.76849883,144.285743,"Miller St/Mitchell St                                                 ","Quarry Hill                                       ","B   "
"B-10239",-36.76683105,144.2849281,"Palmerston St/Mitchell St                                             ","Quarry Hill                                       ","B   "
"B-1024 ",-38.16767274,145.1420471,"McMurtry Way/Golf Links Rd                                            ","Frankston South                                   ","B   "
"B-10240",-36.76550078,144.2842918,"Station Lane/Mitchell St                                              ","Quarry Hill                                       ","B   "
"B-10241",-36.75612226,144.2832339,"Mundy St/Pall Mall                                                    ","Bendigo                                           ","B   "
"B-10242",-36.75440949,144.2855791,"Baxter St/McCrae St                                                   ","Bendigo                                           ","B   "
"B-10243",-36.75288015,144.2876712,"Arnold St/McCrae St                                                   ","Bendigo                                           ","B   "
"B-10244",-36.75179394,144.2890422,"Tomlins St/McCrae St                                                  ","Bendigo                                           ","B   "
"B-10245",-36.75466036,144.2922339,"Lansell St/Kennedy St                                                 ","East Bendigo                                      ","B   "
"B-10246",-36.75149951,144.2895677,"Tomlins St/McCrae St                                                  ","Bendigo                                           ","B   "
"B-10247",-36.75403372,144.2864883,"Baxter St/McCrae St                                                   ","Bendigo                                           ","B   "
"B-10248",-36.75535229,144.2846386,"St Kilians Church/McCrae St                                           ","Bendigo                                           ","B   "
"B-10249",-36.75650639,144.283086,"Mundy St/McCrae St                                                    ","Bendigo                                           ","B   "
"B-1025 ",-37.88310865,145.0359624,"Wilgra Cres/Booran Rd                                                 ","Caulfield                                         ","B   "
"B-10250",-37.90604803,145.0062246,"Hillcrest Ave/Bay St                                                  ","Brighton                                          ","B   "
"B-10251",-36.75802613,144.2809715,"Bull St/Pall Mall                                                     ","Bendigo                                           ","B   "
"B-10252",-36.75777833,144.2894586,"Baxter St/McIvor Hwy                                                  ","East Bendigo                                      ","B   "
"B-10253",-36.75734461,144.2929683,"Sternberg St/McIvor Hwy                                               ","East Bendigo                                      ","B   "
"B-10254",-36.75765143,144.2945703,"Denovan St/McIvor Hwy                                                 ","East Bendigo                                      ","B   "
"B-10255",-37.9376048,145.0013213,"Hampton Railway Station/Willis Lane                                   ","Hampton                                           ","B   "
"B-10256",-37.93652411,145.002955,"Hampton St/Willis St                                                  ","Hampton                                           ","B   "
"B-10257",-36.77457391,144.3044048,"Strath Village SC/Edwards Rd                                          ","Kennington                                        ","B   "
"B-10258",-36.77706076,144.3008112,"La Trobe University/Ellis St                                          ","Flora Hill                                        ","B   "
"B-10259",-36.77641748,144.2951092,"Bendigo South East College/Curtin St                                  ","Flora Hill                                        ","B   "
"B-1026 ",-38.17007468,145.1452051,"Frankston Golf Club/Golf Links Rd                                     ","Frankston South                                   ","B   "
"B-10260",-36.77430896,144.304246,"Strath Village SC/Edwards Rd                                          ","Kennington                                        ","B   "
"B-10261",-37.93697587,145.0067431,"Foam St/Willis St                                                     ","Hampton                                           ","B   "
"B-10262",-36.75781615,144.2942845,"Neale St/McIvor Hwy                                                   ","Kennington                                        ","B   "
"B-10263",-36.75802357,144.2891476,"Baxter St/McIvor Hwy                                                  ","Bendigo                                           ","B   "
"B-10264",-36.76197947,144.2824224,"Williamson St/Myers St                                                ","Bendigo                                           ","B   "
"B-10265",-36.75907101,144.2979476,"McIvor Hwy/Murphy St                                                  ","Kennington                                        ","B   "
"B-10266",-36.76089714,144.2970099,"Steane St/Murphy St                                                   ","Kennington                                        ","B   "
"B-10267",-36.76217743,144.2966401,"St Aidans Rd/Murphy St                                                ","Kennington                                        ","B   "
"B-10268",-37.77956451,144.9832749,"Porter St/Holden St                                                   ","Fitzroy North                                     ","B   "
"B-10269",-37.93751303,145.0113256,"Hudson St/Willis St                                                   ","Hampton                                           ","B   "
"B-1027 ",-37.8502982,144.9843381,"High St/Punt Rd                                                       ","Prahran                                           ","B   "
"B-10270",-36.76369118,144.2998016,"Mafeking St/St Aidans Rd                                              ","Kennington                                        ","B   "
"B-10271",-36.76453493,144.3020346,"Yallambee Dr/St Aidans Rd                                             ","Kennington                                        ","B   "
"B-10272",-36.7658583,144.3055502,"Fiona Pl/St Aidans Rd                                                 ","Kennington                                        ","B   "
"B-10273",-36.76648528,144.3093591,"Kennington PS/St Aidans Rd                                            ","Strathdale                                        ","B   "
"B-10274",-36.76630372,144.3132858,"Crook St/St Aidans Rd                                                 ","Strathdale                                        ","B   "
"B-10275",-36.76699062,144.3165663,"Rosemary Ave/Cousins St                                               ","Strathdale                                        ","B   "
"B-10276",-36.76826823,144.3184708,"Cousins St/Harley St                                                  ","Strathdale                                        ","B   "
"B-10277",-36.77214225,144.3168235,"Butcher St/Harley St                                                  ","Strathdale                                        ","B   "
"B-10278",-36.77590292,144.3121553,"Oxford Tce/Harley St                                                  ","Strathdale                                        ","B   "
"B-10279",-36.77594298,144.3095436,"Birch Gr/Condon St                                                    ","Kennington                                        ","B   "
"B-1028 ",-38.17142785,145.1470086,"Frankston Golf Club/Golf Links Rd                                     ","Frankston South                                   ","B   "
"B-10280",-37.93781824,145.0133882,"Coombe Ave/Fewster Rd                                                 ","Hampton                                           ","B   "
"B-10281",-36.77543859,144.309158,"Reservoir Rd/Condon St                                                ","Strathdale                                        ","B   "
"B-10282",-36.77585385,144.3119777,"Oxford Tce/Harley St                                                  ","Strathdale                                        ","B   "
"B-10283",-36.77411198,144.3142567,"Landale Dr/Harley St                                                  ","Strathdale                                        ","B   "
"B-10284",-36.771121,144.3170943,"Wildwood Dr/Harley St                                                 ","Strathdale                                        ","B   "
"B-10285",-36.76849832,144.3182835,"Cousins St/Harley St                                                  ","Strathdale                                        ","B   "
"B-10286",-36.76707537,144.3163281,"Reservoir Rd/Cousins St                                               ","Strathdale                                        ","B   "
"B-10287",-36.76643627,144.3131692,"Crook St/St Aidans Rd                                                 ","Kennington                                        ","B   "
"B-10288",-36.76661033,144.3093099,"Kennington PS/St Aidans Rd                                            ","Kennington                                        ","B   "
"B-10289",-36.76559779,144.3043944,"Hewitt Ave/St Aidans Rd                                               ","Kennington                                        ","B   "
"B-1029 ",-37.90946552,145.3522803,"Belgrave Village/Belgrave Hwy                                         ","Belgrave                                          ","B   "
"B-10290",-37.93854388,145.0152689,"Fewster Rd/Edinburgh St                                               ","Hampton                                           ","B   "
"B-10291",-36.76461064,144.3017967,"Yallambee Dr/St Aidans Rd                                             ","Kennington                                        ","B   "
"B-10292",-36.76385302,144.2997847,"Mafeking St/St Aidans Rd                                              ","Kennington                                        ","B   "
"B-10293",-36.76329718,144.2983257,"Glencoe St/St Aidans Rd                                               ","Kennington                                        ","B   "
"B-10294",-36.76154608,144.2966175,"St Aidans Rd/Murphy St                                                ","Kennington                                        ","B   "
"B-10295",-36.75887061,144.2978539,"McIvor Hwy/Murphy St                                                  ","Kennington                                        ","B   "
"B-10296",-37.93971664,145.0116075,"Thomas St/Sargood St                                                  ","Hampton                                           ","B   "
"B-10297",-36.75029304,144.3022985,"Cumming St/Murphy St                                                  ","East Bendigo                                      ","B   "
"B-10298",-36.75503702,144.3175989,"E Lloyd St/Powells Ave                                                ","Strathdale                                        ","B   "
"B-10299",-36.75834333,144.3175509,"Baden-Powell Pl/Powells Ave                                           ","Strathdale                                        ","B   "
"B-103  ",-37.97710062,145.0300326,"Haydens Rd/Balcombe Rd                                                ","Beaumaris                                         ","B   "
"B-1030 ",-37.90719203,145.3463253,"Winscombe Ave/Burwood Hwy                                             ","Belgrave                                          ","B   "
"B-10300",-37.94259098,145.0110521,"Linacre Rd/Sargood St                                                 ","Hampton                                           ","B   "
"B-10301",-36.7566737,144.2750386,"Queen Elizabeth Oval/View St                                          ","Bendigo                                           ","B   "
"B-10302",-36.75599438,144.2729235,"Forest St/Barnard St                                                  ","Bendigo                                           ","B   "
"B-10303",-36.75636219,144.2677475,"Don Rd/Eaglehawk Rd                                                   ","Ironbark                                          ","B   "
"B-10304",-36.75545267,144.262292,"Susan St/Eaglehawk Rd                                                 ","Ironbark                                          ","B   "
"B-10305",-36.75218673,144.2593955,"Energetic St/Eaglehawk Rd                                             ","Ironbark                                          ","B   "
"B-10306",-36.74849457,144.2583399,"Havilah Rd/Eaglehawk Rd                                               ","Long Gully                                        ","B   "
"B-10307",-36.74578007,144.2578654,"Creeth St/Eaglehawk Rd                                                ","Long Gully                                        ","B   "
"B-10308",-36.74356139,144.2581796,"Jackson St/Eaglehawk Rd                                               ","Long Gully                                        ","B   "
"B-10309",-36.74070777,144.2587067,"Holdsworth Rd/Eaglehawk Rd                                            ","Long Gully                                        ","B   "
"B-1031 ",-37.9063638,145.3425448,"Sophia Gr/Burwood Hwy                                                 ","Tecoma                                            ","B   "
"B-10310",-36.73653095,144.2585194,"McGowan St/Eaglehawk Rd                                               ","Long Gully                                        ","B   "
"B-10311",-37.94503398,145.0116349,"Lansdown St/Highett Rd                                                ","Hampton                                           ","B   "
"B-10312",-36.73500376,144.2579467,"Weatherall St/Eaglehawk Rd                                            ","California Gully                                  ","B   "
"B-10313",-36.7330945,144.2572198,"Speedy St/Eaglehawk Rd                                                ","California Gully                                  ","B   "
"B-10314",-36.72949714,144.2583218,"Thorpe St/Eaglehawk Rd                                                ","California Gully                                  ","B   "
"B-10315",-36.72625835,144.2585602,"Sandhurst Rd/Eaglehawk Rd                                             ","California Gully                                  ","B   "
"B-10316",-36.72299866,144.2575007,"St Liborius PS/Eaglehawk Rd                                           ","Eaglehawk                                         ","B   "
"B-10317",-36.72108786,144.2567067,"Bright St/High St                                                     ","Eaglehawk                                         ","B   "
"B-10318",-36.71777176,144.2496941,"Eaglehawk CFA/High St                                                 ","Eaglehawk                                         ","B   "
"B-10319",-37.94533613,145.0140506,"Austin Rd/Highett Rd                                                  ","Hampton                                           ","B   "
"B-1032 ",-37.90609228,145.3379899,"Glenfern Rd/Burwood Hwy                                               ","Upwey                                             ","B   "
"B-10320",-36.71666897,144.246823,"Eaglehawk Uniting Church/Kirkwood Rd                                  ","Eaglehawk                                         ","B   "
"B-10321",-36.71408651,144.2489413,"Sailors Gully Rd/Kirkwood Rd                                          ","Eaglehawk                                         ","B   "
"B-10322",-36.71718104,144.2518196,"Canterbury Park/Sailors Gully Rd                                      ","Eaglehawk                                         ","B   "
"B-10323",-36.71915714,144.2546597,"Church St/High St                                                     ","Eaglehawk                                         ","B   "
"B-10324",-36.7215219,144.2571614,"Bright St/Eaglehawk Rd                                                ","Eaglehawk                                         ","B   "
"B-10325",-36.72355928,144.2579733,"St Liborius PS/Eaglehawk Rd                                           ","Eaglehawk                                         ","B   "
"B-10326",-36.72661546,144.258805,"Bendigo-Eaglehawk Rd/Eaglehawk Rd                                     ","California Gully                                  ","B   "
"B-10327",-36.72934047,144.2585625,"Nelson St/Eaglehawk Rd                                                ","California Gully                                  ","B   "
"B-10328",-36.73249636,144.257465,"Speedy St/Eaglehawk Rd                                                ","California Gully                                  ","B   "
"B-10329",-37.94573196,145.0172149,"Field St/Highett Rd                                                   ","Hampton                                           ","B   "
"B-1033 ",-37.90438244,145.3317954,"Upwey Railway Station/Main St                                         ","Upwey                                             ","B   "
"B-10330",-36.73556309,144.2583635,"Weatherall St/Eaglehawk Rd                                            ","California Gully                                  ","B   "
"B-10331",-36.73739979,144.2590707,"McGowan St/Eaglehawk Rd                                               ","Long Gully                                        ","B   "
"B-10332",-36.744299,144.2585117,"Cunneen St/Eaglehawk Rd                                               ","Long Gully                                        ","B   "
"B-10333",-36.74122412,144.2588227,"Stanfield St/Eaglehawk Rd                                             ","Long Gully                                        ","B   "
"B-10334",-36.74592236,144.2581739,"Daly St/Eaglehawk Rd                                                  ","Long Gully                                        ","B   "
"B-10335",-36.74901711,144.2587245,"Wells St/Eaglehawk Rd                                                 ","Long Gully                                        ","B   "
"B-10336",-36.75176533,144.2594889,"Energetic St/Eaglehawk Rd                                             ","Ironbark                                          ","B   "
"B-10337",-36.75427021,144.2614269,"Hayes St/Eaglehawk Rd                                                 ","Ironbark                                          ","B   "
"B-10338",-36.75562792,144.2644248,"Calder Hwy/Eaglehawk Rd                                               ","Ironbark                                          ","B   "
"B-10339",-36.756139,144.2721568,"Acacia St/Barnard St                                                  ","Bendigo                                           ","B   "
"B-1034 ",-37.90301036,145.3290967,"Upwey CFA/Morris Rd                                                   ","Upwey                                             ","B   "
"B-10340",-37.94598609,145.0194613,"Valerian St/Highett Rd                                                ","Hampton                                           ","B   "
"B-10341",-36.75553453,144.2744854,"Queen Elizabeth Oval/View St                                          ","Bendigo                                           ","B   "
"B-10342",-36.75670943,144.2754182,"Rowan St/View St                                                      ","Bendigo                                           ","B   "
"B-10343",-36.75439551,144.2755113,"Bendigo Aquatic Centre/Barnard St                                     ","Bendigo                                           ","B   "
"B-10344",-36.75335056,144.2774969,"Bendigo Croquet Club/Barnard St                                       ","Bendigo                                           ","B   "
"B-10345",-36.75191725,144.2802354,"Water St/Barnard St                                                   ","Bendigo                                           ","B   "
"B-10346",-36.75279387,144.283497,"Water St/Bridge St                                                    ","Bendigo                                           ","B   "
"B-10347",-36.74726234,144.2784512,"Niemann St/Arnold St                                                  ","North Bendigo                                     ","B   "
"B-10348",-36.74604043,144.2770387,"Uniting Church/Arnold St                                              ","North Bendigo                                     ","B   "
"B-10349",-37.74645953,145.0581139,"Lower Plenty Rd/Waiora Rd                                             ","Rosanna                                           ","B   "
"B-1035 ",-37.89377949,145.3156474,"Ferny Creek Ave/Burwood Hwy                                           ","Upper Ferntree Gully                              ","B   "
"B-10350",-37.77998162,144.9871127,"St Georges Rd/Holden St                                               ","Fitzroy North                                     ","B   "
"B-10351",-37.94644942,145.022897,"Bluff Rd/Highett Rd                                                   ","Highett                                           ","B   "
"B-10352",-36.74299434,144.2734959,"St Peters PS/Holmes Rd                                                ","Long Gully                                        ","B   "
"B-10353",-36.73918095,144.2702941,"Bendigo Showgrounds/Holmes Rd                                         ","Long Gully                                        ","B   "
"B-10354",-36.73660573,144.2676421,"Lightning Reef PS/Holmes Rd                                           ","Long Gully                                        ","B   "
"B-10355",-36.73530575,144.266367,"Holdsworth Rd/Sandhurst Rd                                            ","Long Gully                                        ","B   "
"B-10356",-36.73355193,144.2645595,"McGowan St/Sandhurst Rd                                               ","California Gully                                  ","B   "
"B-10357",-36.73144357,144.2634028,"Dowding St/Sandhurst Rd                                               ","California Gully                                  ","B   "
"B-10358",-36.72844118,144.2621659,"Sandhurst Rd/Nelson St                                                ","California Gully                                  ","B   "
"B-10359",-36.72699225,144.2649938,"Green St/Nelson St                                                    ","California Gully                                  ","B   "
"B-1036 ",-37.88815557,145.2918615,"Milton St/Station St                                                  ","Ferntree Gully                                    ","B   "
"B-10360",-36.72612622,144.2680921,"Mathrick St/Nelson St                                                 ","California Gully                                  ","B   "
"B-10361",-36.72530848,144.2709422,"Bright St/Nelson St                                                   ","California Gully                                  ","B   "
"B-10362",-37.94694116,145.0269578,"Telford St/Highett Rd                                                 ","Highett                                           ","B   "
"B-10363",-36.72377217,144.2680076,"Margaret Ct/Bright St                                                 ","California Gully                                  ","B   "
"B-10364",-36.72307834,144.2664425,"Oswald St/Bright St                                                   ","California Gully                                  ","B   "
"B-10365",-36.72183161,144.2635649,"Jobs Gully Rd/Bright St                                               ","Eaglehawk                                         ","B   "
"B-10366",-36.72018193,144.2608025,"Eaglehawk Sec Col/Reserve St                                          ","Eaglehawk                                         ","B   "
"B-10367",-36.71833601,144.2612599,"Church St/Reserve St                                                  ","Eaglehawk                                         ","B   "
"B-10368",-36.71727736,144.262249,"Finch Ave/Grenfell Ave                                                ","Eaglehawk                                         ","B   "
"B-10369",-36.71599124,144.26197,"Eaglehawk Cemetery/Grenfell Ave                                       ","Eaglehawk                                         ","B   "
"B-1037 ",-37.8480688,144.9846602,"Greville St/Punt Rd                                                   ","Prahran                                           ","B   "
"B-10370",-36.71535318,144.2604815,"Magazine St/Victoria St                                               ","Eaglehawk                                         ","B   "
"B-10371",-37.94726673,145.0297145,"Tweed St/Highett Rd                                                   ","Highett                                           ","B   "
"B-10372",-36.72033836,144.2609425,"Eaglehawk Sec Col/Reserve St                                          ","Eaglehawk                                         ","B   "
"B-10373",-36.72180048,144.2637787,"Jobs Gully Rd/Bright St                                               ","Eaglehawk                                         ","B   "
"B-10374",-36.7229515,144.2664134,"Oswald St/Bright St                                                   ","California Gully                                  ","B   "
"B-10375",-36.723864,144.2684745,"Margaret Ct/Bright St                                                 ","California Gully                                  ","B   "
"B-10376",-36.7254348,144.270949,"Bright St/Nelson St                                                   ","California Gully                                  ","B   "
"B-10377",-36.72625151,144.2680541,"Mathrick St/Nelson St                                                 ","California Gully                                  ","B   "
"B-10378",-36.72712757,144.2650002,"Green St/Nelson St                                                    ","California Gully                                  ","B   "
"B-10379",-37.94742699,145.0312124,"Spring Rd/Highett Rd                                                  ","Highett                                           ","B   "
"B-1038 ",-37.88325854,145.2953517,"Alpine St/Station St                                                  ","Ferntree Gully                                    ","B   "
"B-10380",-36.72865009,144.2622369,"Sandhurst Rd/Nelson St                                                ","California Gully                                  ","B   "
"B-10381",-36.73177031,144.263895,"Dowding St/Sandhurst Rd                                               ","California Gully                                  ","B   "
"B-10382",-36.73350227,144.2647516,"McGowan St/Sandhurst Rd                                               ","North Bendigo                                     ","B   "
"B-10383",-36.73534048,144.2667017,"Holdsworth Rd/Sandhurst Rd                                            ","North Bendigo                                     ","B   "
"B-10384",-36.73711048,144.2684304,"Lightning Reef PS/Holmes Rd                                           ","North Bendigo                                     ","B   "
"B-10385",-36.74004277,144.2713273,"Bendigo Showgrounds/Holmes Rd                                         ","North Bendigo                                     ","B   "
"B-10386",-36.74222769,144.2730751,"Ingleton St/Holmes Rd                                                 ","North Bendigo                                     ","B   "
"B-10387",-36.74429294,144.2751072,"Orwin St/Arnold St                                                    ","North Bendigo                                     ","B   "
"B-10388",-36.74626342,144.2777251,"Bannister St/Arnold St                                                ","North Bendigo                                     ","B   "
"B-10389",-36.74715787,144.2786117,"Niemann St/Arnold St                                                  ","North Bendigo                                     ","B   "
"B-1039 ",-37.88336297,145.2753029,"Mountain Gate Shopping Centre/Ferntree Gully Rd                       ","Ferntree Gully                                    ","B   "
"B-10390",-37.94773236,145.0338444,"Panorama Ave/Highett Rd                                               ","Highett                                           ","B   "
"B-10391",-36.75224761,144.2801005,"Tom Flood Sports Centre/Barnard St                                    ","Bendigo                                           ","B   "
"B-10392",-36.75384661,144.277121,"Bendigo Aquatic Centre/Barnard St                                     ","Bendigo                                           ","B   "
"B-10393",-36.74873489,144.2849168,"Bendigo Base Hospital/Lucan St                                        ","Bendigo                                           ","B   "
"B-10394",-36.74528974,144.289148,"Bakewell St/Weeroona Ave                                              ","North Bendigo                                     ","B   "
"B-10395",-36.74298981,144.289856,"Caledonia St/Thunder St                                               ","North Bendigo                                     ","B   "
"B-10396",-36.73903963,144.2921001,"Australian Defence Base/Finn St                                       ","North Bendigo                                     ","B   "
"B-10397",-37.94800324,145.0360336,"Harding St/Highett Rd                                                 ","Highett                                           ","B   "
"B-10398",-36.73684715,144.2919868,"Koomba St/Finn St                                                     ","North Bendigo                                     ","B   "
"B-10399",-36.73184686,144.2876952,"Ashton St/Holdsworth Rd                                               ","North Bendigo                                     ","B   "
"B-104  ",-37.66986608,145.0314736,"Ruth St/Dalton Rd                                                     ","Lalor                                             ","B   "
"B-1040 ",-37.72140637,144.9604951,"Merlynston Railway Station/Lorensen Ave                               ","Coburg North                                      ","B   "
"B-10400",-36.7325729,144.2847587,"Cecil St/Holdsworth Rd                                                ","North Bendigo                                     ","B   "
"B-10401",-36.73404913,144.2815268,"Latham St/Holdsworth Rd                                               ","North Bendigo                                     ","B   "
"B-10402",-36.73442387,144.2782106,"Holdsworth Rd/Prouses Rd                                              ","North Bendigo                                     ","B   "
"B-10403",-37.94825777,145.0383256,"Worthing Rd/Highett Rd                                                ","Highett                                           ","B   "
"B-10404",-36.7342052,144.2781064,"Holdsworth Rd/Prouses Rd                                              ","North Bendigo                                     ","B   "
"B-10405",-36.73386954,144.2815556,"Latham St/Holdsworth Rd                                               ","North Bendigo                                     ","B   "
"B-10406",-36.7324363,144.2846963,"Cecil St/Holdsworth Rd                                                ","North Bendigo                                     ","B   "
"B-10407",-36.73170406,144.2877563,"Jacob St/Holdsworth Rd                                                ","North Bendigo                                     ","B   "
"B-10408",-36.73136786,144.2911941,"Sydenham Ave/Holdsworth Rd                                            ","North Bendigo                                     ","B   "
"B-10409",-36.73595772,144.2921076,"Sandhurst Centre/Finn St                                              ","White Hills                                       ","B   "
"B-1041 ",-38.1871845,145.2374136,"Pearcedale Rd/Robinsons Rd                                            ","Pearcedale                                        ","B   "
"B-10410",-36.73936661,144.2922117,"Australian Defence Base/Finn St                                       ","White Hills                                       ","B   "
"B-10411",-36.74196999,144.2909781,"Moray Cres/Thunder St                                                 ","North Bendigo                                     ","B   "
"B-10412",-37.9486575,145.0417632,"Highett Railway Station/Highett Rd                                    ","Highett                                           ","B   "
"B-10413",-36.7432247,144.2898813,"Caledonia St/Thunder St                                               ","North Bendigo                                     ","B   "
"B-10414",-36.74541216,144.2893788,"Bakewell St/Weeroona Ave                                              ","Bendigo                                           ","B   "
"B-10415",-36.74689677,144.2872997,"Nolan St/Lucan St                                                     ","Bendigo                                           ","B   "
"B-10416",-36.74889953,144.285023,"Bendigo Base Hospital/Lucan St                                        ","Bendigo                                           ","B   "
"B-10417",-36.75403061,144.2729595,"Catholic College Bendigo/View St                                      ","Bendigo                                           ","B   "
"B-10418",-36.75229538,144.2715651,"Newman St/View St                                                     ","Bendigo                                           ","B   "
"B-10419",-36.75120303,144.2706967,"Langston St/View St                                                   ","Bendigo                                           ","B   "
"B-1042 ",-38.19564985,145.2364444,"Victoria Rd/Pearcedale Rd                                             ","Pearcedale                                        ","B   "
"B-10420",-37.94909619,145.0453819,"Nepean Hwy/Highett Rd                                                 ","Highett                                           ","B   "
"B-10421",-36.74945648,144.2641066,"Buckley St/Bennett St                                                 ","Ironbark                                          ","B   "
"B-10422",-37.95055831,145.0417241,"Thistle Gr/Graham Rd                                                  ","Highett                                           ","B   "
"B-10423",-36.74942433,144.2642757,"Buckley St/Bennett St                                                 ","Bendigo                                           ","B   "
"B-10424",-37.78147091,144.9888322,"Kneen St/Rushall Cres                                                 ","Fitzroy North                                     ","B   "
"B-10425",-37.95286228,145.042084,"Dunkley Ave/Graham Rd                                                 ","Highett                                           ","B   "
"B-10426",-36.74746624,144.2661258,"Bray St/Buckley St                                                    ","Long Gully                                        ","B   "
"B-10427",-36.75090537,144.2706848,"Langston St/View St                                                   ","Bendigo                                           ","B   "
"B-10428",-36.75255777,144.2720038,"Valentine St/View St                                                  ","Bendigo                                           ","B   "
"B-10429",-36.75398095,144.2731517,"Catholic College Bendigo/View St                                      ","Bendigo                                           ","B   "
"B-1043 ",-38.20122111,145.235385,"Rosella Ct/Pearcedale Rd                                              ","Pearcedale                                        ","B   "
"B-10430",-37.95575697,145.0422006,"Bay Rd/Graham Rd                                                      ","Cheltenham                                        ","B   "
"B-10431",-36.74888987,144.291317,"Lake Weeroona/Napier St                                               ","Bendigo                                           ","B   "
"B-10432",-36.74461191,144.2946029,"Weeroona Oval/Napier St                                               ","Bendigo                                           ","B   "
"B-10433",-36.74185723,144.2967152,"Weeroona Ave/Napier St                                                ","White Hills                                       ","B   "
"B-10434",-36.7388902,144.2990028,"Weeroona College/Napier St                                            ","White Hills                                       ","B   "
"B-10435",-36.73718149,144.3003504,"417 Napier St                                                         ","White Hills                                       ","B   "
"B-10436",-37.95666708,145.0459893,"Jackson Rd/Bay Rd                                                     ","Cheltenham                                        ","B   "
"B-10437",-36.73379725,144.302921,"Cambridge Cres/Napier St                                              ","White Hills                                       ","B   "
"B-10438",-36.73110518,144.3050193,"Plumridge St/Napier St                                                ","White Hills                                       ","B   "
"B-10439",-36.72935161,144.3063793,"Bosquet St/Napier St                                                  ","White Hills                                       ","B   "
"B-1044 ",-38.20260886,145.2329875,"Pearcedale Village SC/Baxter-Tooradin Rd                              ","Pearcedale                                        ","B   "
"B-10440",-36.72681801,144.3083152,"Botanic Gardens/Napier St                                             ","White Hills                                       ","B   "
"B-10441",-36.72347085,144.3109397,"Hall St/Napier St                                                     ","White Hills                                       ","B   "
"B-10442",-36.71989477,144.3126093,"Derrimut Rd/Napier St                                                 ","Epsom                                             ","B   "
"B-10443",-36.71868416,144.3128754,"Taylor St/Napier St                                                   ","Epsom                                             ","B   "
"B-10444",-36.71478571,144.3138396,"Montis Lane/Midland Hwy                                               ","Epsom                                             ","B   "
"B-10445",-36.71016264,144.3150416,"Toma Ct/Midland Hwy                                                   ","Epsom                                             ","B   "
"B-10446",-36.70748077,144.3156051,"Bendigo Pottery/Midland Hwy                                           ","Epsom                                             ","B   "
"B-10447",-36.69507953,144.3179726,"Ironstone Rd/Midland Hwy                                              ","Huntly                                            ","B   "
"B-10448",-36.69225253,144.3184961,"McPherson St/Midland Hwy                                              ","Huntly                                            ","B   "
"B-10449",-36.68777491,144.3193567,"Allen St/Midland Hwy                                                  ","Huntly                                            ","B   "
"B-1045 ",-38.20171599,145.225175,"Middle Rd/Baxter-Tooradin Rd                                          ","Pearcedale                                        ","B   "
"B-10450",-36.681828,144.3206038,"Sargeants Rd/Midland Hwy                                              ","Huntly                                            ","B   "
"B-10451",-36.6739328,144.3225783,"Pitt St/Midland Hwy                                                   ","Huntly                                            ","B   "
"B-10452",-36.6681719,144.3293,"Pasley St/Midland Hwy                                                 ","Huntly                                            ","B   "
"B-10453",-36.6659065,144.3319625,"Huntly SC/Midland Hwy                                                 ","Huntly                                            ","B   "
"B-10454",-36.66412454,144.3340824,"Stephenson St/Midland Hwy                                             ","Huntly                                            ","B   "
"B-10455",-36.66110457,144.3376654,"Brunel St/Midland Hwy                                                 ","Huntly                                            ","B   "
"B-10456",-36.65782257,144.3416263,"Deep Lead Rd/Midland Hwy                                              ","Huntly                                            ","B   "
"B-10457",-36.65580277,144.344,"Grevillea Rd/Midland Hwy                                              ","Huntly                                            ","B   "
"B-10458",-36.652125,144.3484102,"Boronia Rd/Midland Hwy                                                ","Huntly                                            ","B   "
"B-10459",-36.65233361,144.3484701,"Boronia Rd/Midland Hwy                                                ","Huntly                                            ","B   "
"B-1046 ",-38.20045961,145.214825,"Western Port Hwy/Baxter-Tooradin Rd                                   ","Langwarrin South                                  ","B   "
"B-10460",-36.65608994,144.3439454,"Grevillea Rd/Midland Hwy                                              ","Huntly                                            ","B   "
"B-10461",-36.65795964,144.3417111,"Deep Lead Rd/Midland Hwy                                              ","Huntly                                            ","B   "
"B-10462",-36.66111132,144.3379672,"Brunel St/Midland Hwy                                                 ","Huntly                                            ","B   "
"B-10463",-36.6646766,144.3337836,"Stephenson St/Midland Hwy                                             ","Huntly                                            ","B   "
"B-10464",-36.66618666,144.3319976,"Huntly SC/Midland Hwy                                                 ","Huntly                                            ","B   "
"B-10465",-37.96706449,145.0556512,"Cheltenham Railway Station/Station Rd                                 ","Cheltenham                                        ","B   "
"B-10466",-36.66767868,144.3302121,"Pasley St/Midland Hwy                                                 ","Huntly                                            ","B   "
"B-10467",-36.67314623,144.3236684,"Ligar St/Midland Hwy                                                  ","Huntly                                            ","B   "
"B-10468",-36.68137579,144.3209327,"Sargeants Rd/Midland Hwy                                              ","Huntly                                            ","B   "
"B-10469",-36.68766515,144.319685,"Allen St/Midland Hwy                                                  ","Huntly                                            ","B   "
"B-1047 ",-37.84527523,144.9851908,"Commercial Rd/Punt Rd                                                 ","South Yarra                                       ","B   "
"B-10470",-36.69232035,144.3187064,"McPherson St/Midland Hwy                                              ","Huntly                                            ","B   "
"B-10471",-36.69549703,144.3181036,"Ironstone Rd/Midland Hwy                                              ","Huntly                                            ","B   "
"B-10472",-36.70926033,144.3217888,"Epsom Child Health Centre/Strickland St                               ","Epsom                                             ","B   "
"B-10473",-36.70659507,144.3254966,"Howard St/Strickland St                                               ","Epsom                                             ","B   "
"B-10474",-37.96581232,145.0594975,"Nepean Hwy/Centre Dandenong Rd                                        ","Cheltenham                                        ","B   "
"B-10475",-36.70558913,144.3192413,"Epsom Village SC/Howard St                                            ","Epsom                                             ","B   "
"B-10476",-36.70577167,144.3161458,"Epsom Post Office/Midland Hwy                                         ","Epsom                                             ","B   "
"B-10477",-36.70758461,144.3158141,"Bendigo Pottery/Midland Hwy                                           ","Epsom                                             ","B   "
"B-10478",-36.70998036,144.3153502,"Toma Ct/Midland Hwy                                                   ","Epsom                                             ","B   "
"B-10479",-36.71392259,144.3143286,"Golf Course Rd/Midland Hwy                                            ","Epsom                                             ","B   "
"B-1048 ",-38.19973221,145.2055358,"West Rd/Baxter-Tooradin Rd                                            ","Langwarrin South                                  ","B   "
"B-10480",-36.71820673,144.3132839,"Taylor St/Napier St                                                   ","Epsom                                             ","B   "
"B-10481",-36.72006343,144.3128945,"Derrimut Rd/Napier St                                                 ","Epsom                                             ","B   "
"B-10482",-36.7221672,144.3122726,"Hall St/Napier St                                                     ","White Hills                                       ","B   "
"B-10483",-36.72489367,144.3100952,"Botanic Gardens/Napier St                                             ","White Hills                                       ","B   "
"B-10484",-37.96629063,145.0633665,"Axelton St/Centre Dandenong Rd                                        ","Cheltenham                                        ","B   "
"B-10485",-36.72678134,144.3086859,"Hamelin St/Napier St                                                  ","White Hills                                       ","B   "
"B-10486",-36.72950875,144.306553,"White Hills SC/Napier St                                              ","White Hills                                       ","B   "
"B-10487",-36.73182049,144.3047704,"Lyons St/Napier St                                                    ","White Hills                                       ","B   "
"B-10488",-36.73435377,144.3028231,"Grace St/Napier St                                                    ","White Hills                                       ","B   "
"B-10489",-36.7374004,144.3004659,"412 Napier St                                                         ","White Hills                                       ","B   "
"B-1049 ",-38.19935184,145.1924926,"Highfield Dr/Baxter-Tooradin Rd                                       ","Langwarrin South                                  ","B   "
"B-10490",-36.73990684,144.2985304,"Weeroona College/Napier St                                            ","White Hills                                       ","B   "
"B-10491",-36.7428651,144.2962543,"Weeroona Ave/Napier St                                                ","White Hills                                       ","B   "
"B-10492",-36.74510437,144.2944624,"Weeroona Oval/Napier St                                               ","Bendigo                                           ","B   "
"B-10493",-37.96671836,145.0669068,"Coolac St/Centre Dandenong Rd                                         ","Cheltenham                                        ","B   "
"B-10494",-36.74774448,144.2924659,"Lake Weeroona/294 Napier St                                           ","Bendigo                                           ","B   "
"B-10495",-36.75073948,144.2965602,"Hyde St/Strickland Rd                                                 ","East Bendigo                                      ","B   "
"B-10496",-37.96723788,145.071105,"Herald St/Centre Dandenong Rd                                         ","Cheltenham                                        ","B   "
"B-10497",-37.7829777,144.991051,"Rushall Railway Station/Rushall Cres                                  ","Fitzroy North                                     ","B   "
"B-10498",-37.96774974,145.0753945,"Warrigal Rd/Centre Dandenong Rd                                       ","Cheltenham                                        ","B   "
"B-10499",-37.96826116,145.0791149,"Jells Rd/Centre Dandenong Rd                                          ","Cheltenham                                        ","B   "
"B-105  ",-37.97805351,145.0352783,"Mcnaught St/Balcombe Rd                                               ","Beaumaris                                         ","B   "
"B-1050 ",-38.1991077,145.1831005,"Warrandyte Rd/Baxter-Tooradin Rd                                      ","Langwarrin South                                  ","B   "
"B-10500",-37.9686314,145.0824747,"Blackburn Dr/Centre Dandenong Rd                                      ","Cheltenham                                        ","B   "
"B-10501",-37.96910952,145.0863782,"Grange Rd/Centre Dandenong Rd                                         ","Cheltenham                                        ","B   "
"B-10502",-37.96955643,145.0900321,"DFO/Centre Dandenong Rd                                               ","Moorabbin Airport                                 ","B   "
"B-10503",-37.97092681,145.1011983,"Moorabbin Airport/Centre Dandenong Rd                                 ","Heatherton                                        ","B   "
"B-10504",-37.97194069,145.1093117,"Boundary Rd/Centre Dandenong Rd                                       ","Heatherton                                        ","B   "
"B-10505",-37.97232864,145.1127056,"Boundary Rd/Centre Dandenong Rd                                       ","Dingley Village                                   ","B   "
"B-10506",-37.97628142,145.1231922,"Kingswood Golf Club/Centre Dandenong Rd                               ","Dingley Village                                   ","B   "
"B-10507",-37.97928779,145.1263603,"Golfwood Cl/Centre Dandenong Rd                                       ","Dingley Village                                   ","B   "
"B-10508",-37.78559563,144.9918431,"Rowe St/Rushall Cres                                                  ","Fitzroy North                                     ","B   "
"B-10509",-37.98113666,145.1287156,"Greenview Cl/Centre Dandenong Rd                                      ","Dingley Village                                   ","B   "
"B-1051 ",-38.19826831,145.1766237,"St Kilda St/Baxter-Tooradin [South] Rd                                ","Baxter                                            ","B   "
"B-10510",-37.98283814,145.1314392,"Dingley Primary School/Centre Dandenong Rd                            ","Dingley Village                                   ","B   "
"B-10511",-37.98450334,145.1341523,"Dingley Village Shopping Centre/Centre Dandenong Rd                   ","Dingley Village                                   ","B   "
"B-10512",-37.90550906,145.0020764,"North Brighton Station/Bay St                                         ","Brighton                                          ","B   "
"B-10513",-37.98643711,145.1373257,"Harley St/Centre Dandenong Rd                                         ","Dingley Village                                   ","B   "
"B-10514",-37.98790905,145.1397935,"Golf Links Cres/Centre Dandenong Rd                                   ","Dingley Village                                   ","B   "
"B-10515",-37.99051685,145.142859,"Spring Park Golf Course/Lower Dandenong Rd                            ","Dingley Village                                   ","B   "
"B-10516",-37.99081596,145.1458235,"Springvale Rd/Cheltenham Rd                                           ","Keysborough                                       ","B   "
"B-10517",-37.99196234,145.1551093,"Springers Leisure Centre/Cheltenham Rd                                ","Keysborough                                       ","B   "
"B-10518",-37.90481121,144.996545,"Snooks Ct/Bay St                                                      ","Brighton                                          ","B   "
"B-10519",-37.78599501,144.994126,"Clifton Hill Interchange/Queens Pde                                   ","Clifton Hill                                      ","B   "
"B-1052 ",-38.19530284,145.1575369,"Baxter Station/Baxter-Tooradin Rd                                     ","Baxter                                            ","B   "
"B-10520",-37.99278327,145.1620692,"Corrigan Rd/Cheltenham Rd                                             ","Keysborough                                       ","B   "
"B-10521",-37.99327309,145.1657351,"College Cres/Cheltenham Rd                                            ","Keysborough                                       ","B   "
"B-10522",-37.9937059,145.1692202,"Grayling Cres/Cheltenham Rd                                           ","Keysborough                                       ","B   "
"B-10523",-37.99479799,145.1826875,"Chandler Rd/Cheltenham Rd                                             ","Keysborough                                       ","B   "
"B-10524",-37.99327719,145.1886692,"Cambria Rd/Cheltenham Rd                                              ","Keysborough                                       ","B   "
"B-10525",-37.99151554,145.1954196,"Sinclair Rd/Cheltenham Rd                                             ","Dandenong                                         ","B   "
"B-10526",-37.781041,144.9974506,"High St/Westgarth St                                                  ","Northcote                                         ","B   "
"B-10527",-37.98493153,145.202128,"Wilma Ave/Railway Pde                                                 ","Dandenong                                         ","B   "
"B-10528",-37.98682035,145.2048374,"Rosewood Reception/24 Railway Pde                                     ","Dandenong                                         ","B   "
"B-10529",-37.98871328,145.2078201,"Swords St/Foster St                                                   ","Dandenong                                         ","B   "
"B-1053 ",-38.19486184,145.1547048,"Stornoway Dr/Baxter-Tooradin Rd                                       ","Baxter                                            ","B   "
